<?xml version="1.0" encoding="UTF-8"?>
<kml xmlns="http://www.opengis.net/kml/2.2">

<Placemark>
<name> STANWIX ST OPP FOURTH AVE
</name>
<description>no description</description>
<Point>
  <coordinates>-80.004503,40.440497,0</coordinates>
</Point>
</Placemark>
		
<Placemark>
<name> ARLINGTON AVE AT E CARSON ST
</name>
<description>no description</description>
<Point>
  <coordinates>-80.001154,40.430674,0</coordinates>
</Point>
</Placemark>
		
<Placemark>
<name> BLVD OF ALLIES AT SMITHFIELD ST
</name>
<description>no description</description>
<Point>
  <coordinates>-80.000344,40.437750,0</coordinates>
</Point>
</Placemark>
		
<Placemark>
<name> BLVD OF ALLIES AT HALKET ST FS
</name>
<description>no description</description>
<Point>
  <coordinates>-79.958766,40.435907,0</coordinates>
</Point>
</Placemark>
		
<Placemark>
<name> CENTRE AVE AT ELMORE ST FS
</name>
<description>no description</description>
<Point>
  <coordinates>-79.977378,40.444919,0</coordinates>
</Point>
</Placemark>
		
<Placemark>
<name> ROBINSON ST AT TERRACE ST
</name>
<description>no description</description>
<Point>
  <coordinates>-79.965668,40.440370,0</coordinates>
</Point>
</Placemark>
		
<Placemark>
<name> NEGLEY AVE AT BAUM BLVD
</name>
<description>no description</description>
<Point>
  <coordinates>-79.933833,40.458244,0</coordinates>
</Point>
</Placemark>
		
<Placemark>
<name> EAST LIBERTY BLVD AT PENN AVE
</name>
<description>no description</description>
<Point>
  <coordinates>-79.917331,40.457668,0</coordinates>
</Point>
</Placemark>
		
<Placemark>
<name> PENN AVE AT SHERIDAN SQ
</name>
<description>no description</description>
<Point>
  <coordinates>-79.923987,40.461062,0</coordinates>
</Point>
</Placemark>
		
<Placemark>
<name> WILKINS AVE AT FAIR OAKS ST
</name>
<description>no description</description>
<Point>
  <coordinates>-79.930023,40.445141,0</coordinates>
</Point>
</Placemark>
		
<Placemark>
<name> WILKINS AVE AT FAIR OAKS ST
</name>
<description>no description</description>
<Point>
  <coordinates>-79.930612,40.445197,0</coordinates>
</Point>
</Placemark>
		
<Placemark>
<name> FORBES AVE AT BEELER ST
</name>
<description>no description</description>
<Point>
  <coordinates>-79.938604,40.443774,0</coordinates>
</Point>
</Placemark>
		
<Placemark>
<name> BEDFORD AVE OPP DUFF ST
</name>
<description>no description</description>
<Point>
  <coordinates>-79.973751,40.450217,0</coordinates>
</Point>
</Placemark>
		
<Placemark>
<name> BEDFORD AVE AT MANILLA ST
</name>
<description>no description</description>
<Point>
  <coordinates>-79.986233,40.444936,0</coordinates>
</Point>
</Placemark>
		
<Placemark>
<name> FIFTH AVE AT SMITHFIELD ST
</name>
<description>no description</description>
<Point>
  <coordinates>-79.998468,40.440050,0</coordinates>
</Point>
</Placemark>
		
<Placemark>
<name> FIFTH AVE AT SMITHFIELD ST
</name>
<description>no description</description>
<Point>
  <coordinates>-79.998816,40.440027,0</coordinates>
</Point>
</Placemark>
		
<Placemark>
<name> LIBERTY AVE AT MARKET ST
</name>
<description>no description</description>
<Point>
  <coordinates>-80.002122,40.441713,0</coordinates>
</Point>
</Placemark>
		
<Placemark>
<name> SMITHFIELD ST AT FORBES AVE
</name>
<description>no description</description>
<Point>
  <coordinates>-79.999106,40.439537,0</coordinates>
</Point>
</Placemark>
		
<Placemark>
<name> CENTRE AVE OPP LEMIEUX PL
</name>
<description>no description</description>
<Point>
  <coordinates>-79.989333,40.440355,0</coordinates>
</Point>
</Placemark>
		
<Placemark>
<name> BEDFORD AVE AT KIRKPATRICK ST
</name>
<description>no description</description>
<Point>
  <coordinates>-79.978424,40.448088,0</coordinates>
</Point>
</Placemark>
		
<Placemark>
<name> CENTRE AVE AT WASHINGTON PL NS
</name>
<description>no description</description>
<Point>
  <coordinates>-79.991182,40.440506,0</coordinates>
</Point>
</Placemark>
		
<Placemark>
<name> SMITHFIELD ST AT SIXTH AVE
</name>
<description>no description</description>
<Point>
  <coordinates>-79.997761,40.441550,0</coordinates>
</Point>
</Placemark>
		
<Placemark>
<name> STANWIX ST AT FOURTH AVE (PPG PLACE)
</name>
<description>no description</description>
<Point>
  <coordinates>-80.004417,40.440363,0</coordinates>
</Point>
</Placemark>
		
<Placemark>
<name> SOUTH BUSWAY AT STATION SQUARE
</name>
<description>no description</description>
<Point>
  <coordinates>-80.003687,40.431746,0</coordinates>
</Point>
</Placemark>
		
<Placemark>
<name> STANTON AVE AT JANCEY ST
</name>
<description>no description</description>
<Point>
  <coordinates>-79.931405,40.473962,0</coordinates>
</Point>
</Placemark>
		
<Placemark>
<name> HIGHLAND AVE AT WELLESLEY AVE
</name>
<description>no description</description>
<Point>
  <coordinates>-79.919711,40.472356,0</coordinates>
</Point>
</Placemark>
		
<Placemark>
<name> HIGHLAND AVE AT WELLESLEY AVE
</name>
<description>no description</description>
<Point>
  <coordinates>-79.919832,40.472568,0</coordinates>
</Point>
</Placemark>
		
<Placemark>
<name> HAMILTON AVE AT PUTNAM ST
</name>
<description>no description</description>
<Point>
  <coordinates>-79.913006,40.458848,0</coordinates>
</Point>
</Placemark>
		
<Placemark>
<name> NEVILLE ST AT BAYARD ST
</name>
<description>no description</description>
<Point>
  <coordinates>-79.948541,40.450280,0</coordinates>
</Point>
</Placemark>
		
<Placemark>
<name> NEVILLE ST AT BAYARD ST
</name>
<description>no description</description>
<Point>
  <coordinates>-79.949014,40.450488,0</coordinates>
</Point>
</Placemark>
		
<Placemark>
<name> FIFTH AVE AT BRENHAM ST FS
</name>
<description>no description</description>
<Point>
  <coordinates>-79.968584,40.436479,0</coordinates>
</Point>
</Placemark>
		
<Placemark>
<name> FIFTH AVE AT MOULTRIE ST FS
</name>
<description>no description</description>
<Point>
  <coordinates>-79.974410,40.438097,0</coordinates>
</Point>
</Placemark>
		
<Placemark>
<name> MILLVALE AVE AT CYPRESS ST
</name>
<description>no description</description>
<Point>
  <coordinates>-79.947093,40.458918,0</coordinates>
</Point>
</Placemark>
		
<Placemark>
<name> MILLVALE AVE AT CYPRESS ST
</name>
<description>no description</description>
<Point>
  <coordinates>-79.947039,40.458524,0</coordinates>
</Point>
</Placemark>
		
<Placemark>
<name> BENTLEY DR AT KIRKPATRICK ST FS
</name>
<description>no description</description>
<Point>
  <coordinates>-79.974231,40.440758,0</coordinates>
</Point>
</Placemark>
		
<Placemark>
<name> ELMORE ST AT ROSE ST
</name>
<description>no description</description>
<Point>
  <coordinates>-79.976652,40.443911,0</coordinates>
</Point>
</Placemark>
		
<Placemark>
<name> BAUM BLVD AT ENFIELD ST
</name>
<description>no description</description>
<Point>
  <coordinates>-79.949372,40.454141,0</coordinates>
</Point>
</Placemark>
		
<Placemark>
<name> MILWAUKEE ST AT ORION ST
</name>
<description>no description</description>
<Point>
  <coordinates>-79.961343,40.454353,0</coordinates>
</Point>
</Placemark>
		
<Placemark>
<name> FIFTH AVE AT DESOTO ST
</name>
<description>no description</description>
<Point>
  <coordinates>-79.957877,40.442326,0</coordinates>
</Point>
</Placemark>
		
<Placemark>
<name> FIFTH AVE OPP GIST ST
</name>
<description>no description</description>
<Point>
  <coordinates>-79.979468,40.438340,0</coordinates>
</Point>
</Placemark>
		
<Placemark>
<name> ADELAIDE ST OPP LYON ST FS
</name>
<description>no description</description>
<Point>
  <coordinates>-79.959322,40.453846,0</coordinates>
</Point>
</Placemark>
		
<Placemark>
<name> ROBINSON ST AT ALLEQUIPPA ST
</name>
<description>no description</description>
<Point>
  <coordinates>-79.965628,40.44274 ,0</coordinates>
</Point>
</Placemark>
		
<Placemark>
<name> ROBINSON ST AT ALLEQUIPPA ST
</name>
<description>no description</description>
<Point>
  <coordinates>-79.965858,40.442851,0</coordinates>
</Point>
</Placemark>
		
<Placemark>
<name> SECOND AVE OPP TECHNOLOGY DR
</name>
<description>no description</description>
<Point>
  <coordinates>-79.965264,40.434092,0</coordinates>
</Point>
</Placemark>
		
<Placemark>
<name> WEBSTER AVE AT ORION ST
</name>
<description>no description</description>
<Point>
  <coordinates>-79.961938,40.454754,0</coordinates>
</Point>
</Placemark>
		
<Placemark>
<name> GRANT ST AT 7TH AVE FS
</name>
<description>no description</description>
<Point>
  <coordinates>-79.994301,40.442787,0</coordinates>
</Point>
</Placemark>
		
<Placemark>
<name> LIBERTY AVE AT 11TH ST (GREYHOUND)
</name>
<description>no description</description>
<Point>
  <coordinates>-79.993368,40.444303,0</coordinates>
</Point>
</Placemark>
		
<Placemark>
<name> EAST BUSWAY AT PENN STATION A
</name>
<description>no description</description>
<Point>
  <coordinates>-79.992218,40.443763,0</coordinates>
</Point>
</Placemark>
		
<Placemark>
<name> WILKINS AVE AT WIGHTMAN ST
</name>
<description>no description</description>
<Point>
  <coordinates>-79.927772,40.444139,0</coordinates>
</Point>
</Placemark>
		
<Placemark>
<name> WILKINS AVE AT WIGHTMAN ST
</name>
<description>no description</description>
<Point>
  <coordinates>-79.928153,40.444052,0</coordinates>
</Point>
</Placemark>
		
<Placemark>
<name> MURRAY AVE AT WILKINS AVE
</name>
<description>no description</description>
<Point>
  <coordinates>-79.923737,40.443692,0</coordinates>
</Point>
</Placemark>
		
<Placemark>
<name> FIFTH AVE AT MARKET ST
</name>
<description>no description</description>
<Point>
  <coordinates>-80.001479,40.441214,0</coordinates>
</Point>
</Placemark>
		
<Placemark>
<name> SECOND AVE AT ALLEGHENY COUNTY JAIL
</name>
<description>no description</description>
<Point>
  <coordinates>-79.993797,40.435059,0</coordinates>
</Point>
</Placemark>
		
<Placemark>
<name> SECOND AVE OPP MUNICIPAL COURTS DR
</name>
<description>no description</description>
<Point>
  <coordinates>-79.995141,40.435784,0</coordinates>
</Point>
</Placemark>
		
<Placemark>
<name> BRYANT ST AT EUCLID AVE
</name>
<description>no description</description>
<Point>
  <coordinates>-79.919993,40.475697,0</coordinates>
</Point>
</Placemark>
		
<Placemark>
<name> BRYANT ST AT EUCLID AVE
</name>
<description>no description</description>
<Point>
  <coordinates>-79.919688,40.475734,0</coordinates>
</Point>
</Placemark>
		
<Placemark>
<name> LAYOVER EAST LIBERTY TERMINAL (NO STOP)
</name>
<description>no description</description>
<Point>
  <coordinates>-79.914695,40.457478,0</coordinates>
</Point>
</Placemark>
		
<Placemark>
<name> PENN AVE OPP BAKERY SQUARE
</name>
<description>no description</description>
<Point>
  <coordinates>-79.915406,40.455961,0</coordinates>
</Point>
</Placemark>
		
<Placemark>
<name> PENN AVE OPP BAKERY SQUARE
</name>
<description>no description</description>
<Point>
  <coordinates>-79.915678,40.456100,0</coordinates>
</Point>
</Placemark>
		
<Placemark>
<name> STANTON AVE AT NEGLEY AVE
</name>
<description>no description</description>
<Point>
  <coordinates>-79.926161,40.471539,0</coordinates>
</Point>
</Placemark>
		
<Placemark>
<name> STANTON AVE AT NEGLEY AVE
</name>
<description>no description</description>
<Point>
  <coordinates>-79.926590,40.471473,0</coordinates>
</Point>
</Placemark>
		
<Placemark>
<name> LARIMER AVE AT MAYFLOWER ST
</name>
<description>no description</description>
<Point>
  <coordinates>-79.916083,40.464211,0</coordinates>
</Point>
</Placemark>
		
<Placemark>
<name> LARIMER AVE AT MAYFLOWER ST
</name>
<description>no description</description>
<Point>
  <coordinates>-79.916003,40.464457,0</coordinates>
</Point>
</Placemark>
		
<Placemark>
<name> HIGHLAND AVE AT WALNUT ST
</name>
<description>no description</description>
<Point>
  <coordinates>-79.925206,40.454105,0</coordinates>
</Point>
</Placemark>
		
<Placemark>
<name> HIGHLAND AVE AT WALNUT ST
</name>
<description>no description</description>
<Point>
  <coordinates>-79.925453,40.454201,0</coordinates>
</Point>
</Placemark>
		
<Placemark>
<name> FIFTH AVE AT OAKLAND AVE
</name>
<description>no description</description>
<Point>
  <coordinates>-79.957855,40.442077,0</coordinates>
</Point>
</Placemark>
		
<Placemark>
<name> MILLVALE AVE AT YEW ST
</name>
<description>no description</description>
<Point>
  <coordinates>-79.947249,40.457687,0</coordinates>
</Point>
</Placemark>
		
<Placemark>
<name> MILLVALE AVE AT YEW ST
</name>
<description>no description</description>
<Point>
  <coordinates>-79.947546,40.458226,0</coordinates>
</Point>
</Placemark>
		
<Placemark>
<name> TERRACE ST OPP CHESTERFIELD RD
</name>
<description>no description</description>
<Point>
  <coordinates>-79.963830,40.441090,0</coordinates>
</Point>
</Placemark>
		
<Placemark>
<name> BENTLEY DR AT #2160
</name>
<description>no description</description>
<Point>
  <coordinates>-79.977726,40.440322,0</coordinates>
</Point>
</Placemark>
		
<Placemark>
<name> BAUM BLVD AT LIBERTY AVE FS
</name>
<description>no description</description>
<Point>
  <coordinates>-79.939193,40.456627,0</coordinates>
</Point>
</Placemark>
		
<Placemark>
<name> PENN AVE OPP VILLAGE OF EASTSIDE SHPG CTR
</name>
<description>no description</description>
<Point>
  <coordinates>-79.918523,40.458136,0</coordinates>
</Point>
</Placemark>
		
<Placemark>
<name> PENN AVE AT SHADY AVE FS (GIANT EAGLE)
</name>
<description>no description</description>
<Point>
  <coordinates>-79.920112,40.459171,0</coordinates>
</Point>
</Placemark>
		
<Placemark>
<name> WILKINS AVE OPP BARNSDALE ST
</name>
<description>no description</description>
<Point>
  <coordinates>-79.915632,40.445010,0</coordinates>
</Point>
</Placemark>
		
<Placemark>
<name> WILKINS AVE OPP MURRAY AVE
</name>
<description>no description</description>
<Point>
  <coordinates>-79.923867,40.444037,0</coordinates>
</Point>
</Placemark>
		
<Placemark>
<name> CRAWFORD ST AT BEDFORD AVE
</name>
<description>no description</description>
<Point>
  <coordinates>-79.988006,40.443944,0</coordinates>
</Point>
</Placemark>
		
<Placemark>
<name> 32ND ST AT SPRING WAY
</name>
<description>no description</description>
<Point>
  <coordinates>-79.969436,40.460347,0</coordinates>
</Point>
</Placemark>
		
<Placemark>
<name> ROBERTS ST AT WYLIE AVE
</name>
<description>no description</description>
<Point>
  <coordinates>-79.984160,40.443492,0</coordinates>
</Point>
</Placemark>
		
<Placemark>
<name> ROBERTS ST AT WYLIE AVE
</name>
<description>no description</description>
<Point>
  <coordinates>-79.984397,40.443598,0</coordinates>
</Point>
</Placemark>
		
<Placemark>
<name> TROY HILL RD AT PROVIDENCE ST FS
</name>
<description>no description</description>
<Point>
  <coordinates>-79.989416,40.457503,0</coordinates>
</Point>
</Placemark>
		
<Placemark>
<name> LIBERTY AVE AT 31ST ST
</name>
<description>no description</description>
<Point>
  <coordinates>-79.970567,40.459374,0</coordinates>
</Point>
</Placemark>
		
<Placemark>
<name> STATION SQUARE STATION
</name>
<description>no description</description>
<Point>
  <coordinates>-80.003189,40.431597,0</coordinates>
</Point>
</Placemark>
		
<Placemark>
<name> STATION SQUARE STATION
</name>
<description>no description</description>
<Point>
  <coordinates>-80.003158,40.431650,0</coordinates>
</Point>
</Placemark>
		
<Placemark>
<name> SMITHFIELD ST AT FORBES AVE
</name>
<description>no description</description>
<Point>
  <coordinates>-79.999106,40.439537,0</coordinates>
</Point>
</Placemark>
		
<Placemark>
<name> HIGHLAND AVE AT EAST LIBERTY BLVD
</name>
<description>no description</description>
<Point>
  <coordinates>-79.922771,40.465718,0</coordinates>
</Point>
</Placemark>
		
<Placemark>
<name> HIGHLAND AVE AT EAST LIBERTY BLVD
</name>
<description>no description</description>
<Point>
  <coordinates>-79.922734,40.466254,0</coordinates>
</Point>
</Placemark>
		
<Placemark>
<name> HIGHLAND AVE AT EAST LIBERTY BLVD
</name>
<description>no description</description>
<Point>
  <coordinates>-79.922771,40.465718,0</coordinates>
</Point>
</Placemark>
		
<Placemark>
<name> HIGHLAND AVE AT EAST LIBERTY BLVD
</name>
<description>no description</description>
<Point>
  <coordinates>-79.922734,40.466254,0</coordinates>
</Point>
</Placemark>
		
<Placemark>
<name> STANTON AVE AT NEGLEY AVE
</name>
<description>no description</description>
<Point>
  <coordinates>-79.926161,40.471539,0</coordinates>
</Point>
</Placemark>
		
<Placemark>
<name> STANTON AVE AT NEGLEY AVE
</name>
<description>no description</description>
<Point>
  <coordinates>-79.926590,40.471473,0</coordinates>
</Point>
</Placemark>
		
<Placemark>
<name> HIGHLAND AVE AT HOWE ST
</name>
<description>no description</description>
<Point>
  <coordinates>-79.924667,40.453221,0</coordinates>
</Point>
</Placemark>
		
<Placemark>
<name> HIGHLAND AVE AT HOWE ST
</name>
<description>no description</description>
<Point>
  <coordinates>-79.924919,40.453328,0</coordinates>
</Point>
</Placemark>
		
<Placemark>
<name> NEGLEY AVE AT STANTON AVE
</name>
<description>no description</description>
<Point>
  <coordinates>-79.926416,40.471724,0</coordinates>
</Point>
</Placemark>
		
<Placemark>
<name> NEGLEY AVE AT STANTON AVE
</name>
<description>no description</description>
<Point>
  <coordinates>-79.926233,40.471290,0</coordinates>
</Point>
</Placemark>
		
<Placemark>
<name> ELMORE ST AT ROSE ST FS
</name>
<description>no description</description>
<Point>
  <coordinates>-79.976611,40.443661,0</coordinates>
</Point>
</Placemark>
		
<Placemark>
<name> NEGLEY AVE AT ELLSWORTH AVE
</name>
<description>no description</description>
<Point>
  <coordinates>-79.932406,40.454623,0</coordinates>
</Point>
</Placemark>
		
<Placemark>
<name> NEGLEY AVE AT ELLSWORTH AVE
</name>
<description>no description</description>
<Point>
  <coordinates>-79.932659,40.454766,0</coordinates>
</Point>
</Placemark>
		
<Placemark>
<name> FORBES AVE AT MOREWOOD AVE FS (CARNEGIE MELLON)
</name>
<description>no description</description>
<Point>
  <coordinates>-79.943553,40.444672,0</coordinates>
</Point>
</Placemark>
		
<Placemark>
<name> MURRAY AVE AT AYLESBORO AVE
</name>
<description>no description</description>
<Point>
  <coordinates>-79.923218,40.439858,0</coordinates>
</Point>
</Placemark>
		
<Placemark>
<name> MURRAY AVE AT AYLESBORO AVE
</name>
<description>no description</description>
<Point>
  <coordinates>-79.922900,40.439659,0</coordinates>
</Point>
</Placemark>
		
<Placemark>
<name> LIBERTY AVE OPP 11TH ST FS (AMTRAK)
</name>
<description>no description</description>
<Point>
  <coordinates>-79.993358,40.444082,0</coordinates>
</Point>
</Placemark>
		
<Placemark>
<name> BENTLEY DR AT OAK HILL DR
</name>
<description>no description</description>
<Point>
  <coordinates>-79.969827,40.440014,0</coordinates>
</Point>
</Placemark>
		
<Placemark>
<name> ADELAIDE ST AT IOWA ST FS
</name>
<description>no description</description>
<Point>
  <coordinates>-79.956694,40.452942,0</coordinates>
</Point>
</Placemark>
		
<Placemark>
<name> ELLSWORTH AVE AT AMBERSON AVE
</name>
<description>no description</description>
<Point>
  <coordinates>-79.940904,40.451387,0</coordinates>
</Point>
</Placemark>
		
<Placemark>
<name> ELLSWORTH AVE AT AMBERSON AVE
</name>
<description>no description</description>
<Point>
  <coordinates>-79.941072,40.451209,0</coordinates>
</Point>
</Placemark>
		
<Placemark>
<name> NEGLEY AVE AT ELLSWORTH AVE
</name>
<description>no description</description>
<Point>
  <coordinates>-79.932406,40.454623,0</coordinates>
</Point>
</Placemark>
		
<Placemark>
<name> NEGLEY AVE AT ELLSWORTH AVE
</name>
<description>no description</description>
<Point>
  <coordinates>-79.932659,40.454766,0</coordinates>
</Point>
</Placemark>
		
<Placemark>
<name> HIGHLAND AVE OPP BRYANT CT
</name>
<description>no description</description>
<Point>
  <coordinates>-79.918757,40.474394,0</coordinates>
</Point>
</Placemark>
		
<Placemark>
<name> HIGHLAND AVE AT HAYS ST
</name>
<description>no description</description>
<Point>
  <coordinates>-79.921893,40.468041,0</coordinates>
</Point>
</Placemark>
		
<Placemark>
<name> CENTRE AVE AT HERRON AVE
</name>
<description>no description</description>
<Point>
  <coordinates>-79.964811,40.448874,0</coordinates>
</Point>
</Placemark>
		
<Placemark>
<name> BLVD OF ALLIES AT JUMONVILLE ST
</name>
<description>no description</description>
<Point>
  <coordinates>-79.977623,40.436323,0</coordinates>
</Point>
</Placemark>
		
<Placemark>
<name> FIFTH AVE AT BIGELOW BLVD (PITT)
</name>
<description>no description</description>
<Point>
  <coordinates>-79.954840,40.444299,0</coordinates>
</Point>
</Placemark>
		
<Placemark>
<name> FIFTH AVE AT BIGELOW BLVD (PITT)
</name>
<description>no description</description>
<Point>
  <coordinates>-79.954707,40.444618,0</coordinates>
</Point>
</Placemark>
		
<Placemark>
<name> BLVD OF ALLIES AT DAWSON ST
</name>
<description>no description</description>
<Point>
  <coordinates>-79.953028,40.434401,0</coordinates>
</Point>
</Placemark>
		
<Placemark>
<name> CENTRE AVE OPP ALLEQUIPPA ST
</name>
<description>no description</description>
<Point>
  <coordinates>-79.958825,40.448352,0</coordinates>
</Point>
</Placemark>
		
<Placemark>
<name> CENTRE AVE AT ELMORE ST FS
</name>
<description>no description</description>
<Point>
  <coordinates>-79.977378,40.444919,0</coordinates>
</Point>
</Placemark>
		
<Placemark>
<name> BRYN MAWR RD AT IOWA ST
</name>
<description>no description</description>
<Point>
  <coordinates>-79.957415,40.451405,0</coordinates>
</Point>
</Placemark>
		
<Placemark>
<name> BRYN MAWR RD AT IOWA ST
</name>
<description>no description</description>
<Point>
  <coordinates>-79.957134,40.451402,0</coordinates>
</Point>
</Placemark>
		
<Placemark>
<name> CRAFT AVE AT HAMLET PL FS
</name>
<description>no description</description>
<Point>
  <coordinates>-79.962192,40.436235,0</coordinates>
</Point>
</Placemark>
		
<Placemark>
<name> CENTRE AVE AT SOHO ST
</name>
<description>no description</description>
<Point>
  <coordinates>-79.973920,40.445218,0</coordinates>
</Point>
</Placemark>
		
<Placemark>
<name> CENTRE AVE AT SOHO ST
</name>
<description>no description</description>
<Point>
  <coordinates>-79.974029,40.445100,0</coordinates>
</Point>
</Placemark>
		
<Placemark>
<name> PENN AVE OPP EAST LIBERTY BLVD
</name>
<description>no description</description>
<Point>
  <coordinates>-79.917270,40.457230,0</coordinates>
</Point>
</Placemark>
		
<Placemark>
<name> PENN AVE OPP EASTSIDE III DR (TARGET)
</name>
<description>no description</description>
<Point>
  <coordinates>-79.921621,40.460269,0</coordinates>
</Point>
</Placemark>
		
<Placemark>
<name> BAUM BLVD AT MOREWOOD AVE
</name>
<description>no description</description>
<Point>
  <coordinates>-79.945277,40.454854,0</coordinates>
</Point>
</Placemark>
		
<Placemark>
<name> BAUM BLVD AT MOREWOOD AVE
</name>
<description>no description</description>
<Point>
  <coordinates>-79.945228,40.455042,0</coordinates>
</Point>
</Placemark>
		
<Placemark>
<name> FIFTH AVE OPP WILKINS AVE
</name>
<description>no description</description>
<Point>
  <coordinates>-79.937050,40.447846,0</coordinates>
</Point>
</Placemark>
		
<Placemark>
<name> BEECHWOOD BLVD AT DOUGLAS ST FS
</name>
<description>no description</description>
<Point>
  <coordinates>-79.914621,40.433291,0</coordinates>
</Point>
</Placemark>
		
<Placemark>
<name> WILKINS AVE AT FAIR OAKS ST
</name>
<description>no description</description>
<Point>
  <coordinates>-79.930023,40.445141,0</coordinates>
</Point>
</Placemark>
		
<Placemark>
<name> WILKINS AVE AT FAIR OAKS ST
</name>
<description>no description</description>
<Point>
  <coordinates>-79.930612,40.445197,0</coordinates>
</Point>
</Placemark>
		</kml>